City_ID,City,Lat,Lng,Max Temp,Humidity,Cloudiness,Wind Speed,Country,Date
0,ebon,4.582,168.6964,28.61,76,100,6.49,MH,1693004334
1,phulbani,20.4667,84.2333,21.89,93,91,1.82,IN,1693004334
2,humberto de campos,-2.5983,-43.4611,25.07,87,9,2.94,BR,1693004334
3,port alfred,-33.5906,26.891,11.21,88,59,2.68,ZA,1693004335
4,mount gambier,-37.8333,140.7667,9.2,71,89,2.95,AU,1693004335
5,adamstown,-25.066,-130.1015,18.89,60,26,5.98,PN,1693004335
6,port-aux-francais,-49.35,70.2167,2.93,78,100,13.72,TF,1693004335
7,trairi,-3.2778,-39.2689,25.34,80,1,4.43,BR,1693004335
8,edinburgh of the seven seas,-37.0676,-12.3116,14.78,92,100,13.61,SH,1693004336
9,nova vicosa,-17.8919,-39.3719,24.88,86,15,7.0,BR,1693004336
10,ilulissat,69.2167,-51.1,4.72,84,91,2.95,GL,1693004336
11,lebu,-37.6167,-73.65,7.45,73,10,2.23,CL,1693004336
12,tanjungtiram,4.0613,98.3699,23.78,93,99,1.48,ID,1693004337
13,fortaleza,-3.7227,-38.5247,27.34,74,0,3.09,BR,1693004337
14,smithers,54.7804,-127.1743,26.18,29,0,3.09,CA,1693004337
15,barra de santo antonio,-9.4047,-35.5072,22.6,79,95,4.21,BR,1693004059
16,afaahiti,-17.75,-149.2833,28.93,85,50,7.04,PF,1693004337
17,rio grande,-32.035,-52.0986,12.06,67,13,3.48,BR,1693004337
18,sortavala,61.7053,30.6918,10.17,86,23,3.0,RU,1693004337
19,hilo,19.7297,-155.09,28.47,67,18,1.79,US,1693004338
20,murun-kuren,49.6342,100.1625,10.29,85,4,0.9,MN,1693004338
21,bilibino,68.0546,166.4372,10.84,48,87,1.03,RU,1693004338
22,utrik,11.2278,169.8474,28.44,71,100,6.86,MH,1693004338
23,tandalti,13.0167,31.8667,29.96,47,100,5.43,SD,1693004338
24,tiksi,71.6872,128.8694,10.4,82,80,3.92,RU,1693004338
25,grytviken,-54.2811,-36.5092,-1.98,97,72,1.91,GS,1693004339
26,ta`u,-14.2336,-169.5144,27.51,73,18,6.81,AS,1693004339
27,parambu,-6.2111,-40.6944,26.77,33,3,1.67,BR,1693004339
28,thompson,55.7435,-97.8558,21.09,37,20,5.14,CA,1693004339
29,bethel,41.3712,-73.414,24.08,87,85,0.45,US,1693004339
30,hithadhoo,-0.6,73.0833,28.05,77,40,5.4,MV,1693004339
31,toyooka,35.5333,134.8333,27.89,72,0,1.8,JP,1693004133
32,coromandel,-18.4733,-47.2003,24.01,38,54,2.13,BR,1693004340
33,la ronge,55.1001,-105.2842,21.14,46,75,3.6,CA,1693004340
34,kolonia,50.9333,6.95,20.13,85,20,4.63,DE,1693004243
35,lompoc,34.6391,-120.4579,31.68,68,0,7.6,US,1693004340
36,samana,19.2056,-69.3369,26.98,90,99,2.44,DO,1693004340
37,deqen,29.9618,90.7188,10.7,89,100,1.14,CN,1693004341
38,wailua homesteads,22.0669,-159.378,27.85,68,7,3.13,US,1693004341
39,uturoa,-16.7333,-151.4333,26.07,79,40,7.76,PF,1693004341
40,iraucuba,-3.7461,-39.7833,24.76,70,4,2.96,BR,1693004341
41,takoradi,4.8845,-1.7554,24.44,94,99,4.25,GH,1693004341
42,carnarvon,-24.8667,113.6333,18.03,59,0,5.13,AU,1693004303
43,puerto baquerizo moreno,-0.9,-89.6,27.55,65,40,5.14,EC,1693004342
44,cockburn town,21.4612,-71.1419,28.98,70,40,5.14,TC,1693004342
45,san andres,12.5847,-81.7006,31.01,70,40,1.03,CO,1693004343
46,praia da vitoria,38.7333,-27.0667,23.14,88,40,7.05,PT,1693004343
47,badger,64.8,-147.5333,15.77,97,100,0.46,US,1693004236
48,stanley,54.868,-1.6985,11.4,92,20,0.51,GB,1693004343
49,georgetown,5.4112,100.3354,26.12,93,20,1.03,MY,1693004103
50,yellowknife,62.456,-114.3525,21.9,70,75,6.17,CA,1693004343
51,ushuaia,-54.8,-68.3,1.81,75,40,8.75,AR,1693004344
52,quellon,-43.1167,-73.6167,9.14,76,100,3.6,CL,1693004344
53,tefe,-3.3542,-64.7114,30.06,74,0,1.03,BR,1693004344
54,pyetrykaw,52.1289,28.4921,17.49,69,99,2.41,BY,1693004344
55,alpine,32.835,-116.7664,34.75,50,0,3.37,US,1693004344
56,iqaluit,63.7506,-68.5145,9.85,76,75,6.17,CA,1693004344
57,colonia,50.9333,6.95,20.13,85,20,4.63,DE,1693004344
58,jamestown,42.097,-79.2353,22.51,95,100,2.57,US,1693004345
59,soledad de doblado,19.05,-96.4167,30.03,88,15,2.31,MX,1693004345
60,metu,8.3,35.5833,13.59,98,74,1.34,ET,1693004345
61,margaret river,-33.95,115.0667,13.24,75,33,2.06,AU,1693004345
62,atafu village,-8.5421,-172.5159,28.14,79,100,5.61,TK,1693004346
63,kegeyli shahar,42.7767,59.6078,24.05,34,92,2.37,UZ,1693004346
64,lido di ostia,41.7321,12.2765,28.91,57,0,1.03,IT,1693004346
65,ankang,32.68,109.0172,21.2,98,100,1.35,CN,1693004346
66,ilebo,-4.3167,20.5833,23.0,89,96,0.92,CD,1693004346
67,langsa,4.4683,97.9683,22.98,97,76,0.88,ID,1693004346
68,shiprock,36.7855,-108.687,31.23,28,8,3.57,US,1693004347
69,waitangi,-43.9535,-176.5597,11.57,75,78,1.34,NZ,1693004347
70,isafjordur,66.0755,-23.124,12.89,85,100,7.27,IS,1693004347
71,weno,7.4515,151.8468,29.04,76,88,7.3,FM,1693004347
72,ust'-kulom,61.6864,53.6902,7.85,97,96,2.68,RU,1693004347
73,roswell,34.0232,-84.3616,36.06,53,2,0.45,US,1693004347
74,lihue,21.9789,-159.3672,28.19,67,7,5.72,US,1693004348
75,launceston,-41.45,147.1667,6.75,75,60,3.6,AU,1693004067
76,guerrero negro,27.9769,-114.0611,23.97,66,4,7.93,MX,1693004348
77,happy valley-goose bay,53.3168,-60.3315,20.17,60,75,2.06,CA,1693004348
78,touros,-5.1989,-35.4608,24.37,80,13,5.2,BR,1693004348
79,puerto natales,-51.7236,-72.4875,0.26,94,54,1.62,CL,1693004349
80,zaysan,47.4667,84.8667,21.44,31,16,1.42,KZ,1693004349
81,hermanus,-34.4187,19.2345,9.89,70,58,10.66,ZA,1693004349
82,new norfolk,-42.7826,147.0587,7.73,81,92,0.95,AU,1693004349
83,ambalangoda,6.2355,80.0538,26.6,82,89,3.35,LK,1693004349
84,newman,37.3138,-121.0208,35.03,10,0,2.0,US,1693004350
85,bredasdorp,-34.5322,20.0403,9.03,65,73,9.23,ZA,1693004350
86,porto novo,6.4965,2.6036,25.9,93,80,3.41,BJ,1693004350
87,nantucket,41.2835,-70.0995,21.12,48,100,7.5,US,1693004088
88,fortuna,40.5982,-124.1573,21.07,74,20,5.66,US,1693004350
89,sandnessjoen,66.0217,12.6316,13.29,75,22,5.64,NO,1693004351
90,mabaruma,8.2,-59.7833,26.1,82,12,1.79,GY,1693004351
91,albany,42.6001,-73.9662,24.47,89,100,0.28,US,1693004351
92,howard springs,-12.497,131.047,23.79,86,48,4.39,AU,1693004351
93,qaqortoq,60.7167,-46.0333,6.13,96,22,2.18,GL,1693004351
94,rivne,50.6231,26.2274,20.04,48,91,3.43,UA,1693004351
95,zakamensk,50.3741,103.2863,10.4,94,83,1.03,RU,1693004352
96,east london,-33.0153,27.9116,13.09,67,18,14.81,ZA,1693004352
97,nguigmi,14.2495,13.1092,28.99,58,20,3.0,NE,1693004352
98,kodiak,57.79,-152.4072,13.73,88,100,6.69,US,1693004352
99,invercargill,-46.4,168.35,10.01,89,34,1.34,NZ,1693004352
100,vila velha,-20.3297,-40.2925,22.97,96,0,1.54,BR,1693004352
101,puerto ayora,-0.7393,-90.3518,28.98,91,26,2.68,EC,1693004353
102,fale old settlement,-9.3852,-171.2468,28.11,78,90,5.88,TK,1693004353
103,boryeong,36.3493,126.5977,22.98,83,90,1.23,KR,1693004791
104,keflavik,64.0049,-22.5624,13.95,100,100,9.26,IS,1693004353
105,hamilton,39.1834,-84.5333,32.16,72,3,1.34,US,1693004353
106,kuybyshev,55.4475,78.3218,8.74,75,3,1.83,RU,1693004353
107,sao joao da barra,-21.6403,-41.0511,24.05,91,24,4.23,BR,1693004354
108,luanda,-8.8368,13.2343,22.0,83,40,2.06,AO,1693004354
109,skagen,57.7209,10.5839,15.33,86,76,3.49,DK,1693004354
110,vadso,70.0744,29.7487,10.09,87,75,3.09,NO,1693004354
111,flying fish cove,-10.4217,105.6791,23.82,83,75,5.66,CX,1693004305
112,chadan,51.2833,91.5833,13.89,69,68,1.43,RU,1693004354
113,petropavlovsk-kamchatsky,53.0452,158.6483,13.33,94,100,2.0,RU,1693004355
114,richards bay,-28.783,32.0377,20.61,74,9,7.78,ZA,1693004355
115,whitehorse,60.7161,-135.0538,21.43,50,75,6.17,CA,1693004355
116,blackmans bay,-43.0167,147.3167,7.07,77,49,1.62,AU,1693004355
117,kailua-kona,19.6406,-155.9956,29.04,74,14,2.68,US,1693004355
118,nemuro,43.3236,145.575,20.28,97,99,5.73,JP,1693004356
119,medvezh'yegorsk,62.9167,34.4667,8.84,67,28,1.44,RU,1693004356
120,caraballeda,10.6112,-66.8522,31.04,62,100,3.09,VE,1693004356
121,udachny,66.4167,112.4,16.36,58,9,2.68,RU,1693004356
122,tolanaro,-25.0319,46.9987,22.04,78,20,9.26,MG,1693004356
123,uttar char fasson,22.2332,90.7132,25.43,94,100,4.13,BD,1693004357
124,luderitz,-26.6481,15.1594,13.34,76,75,7.87,NA,1693004357
125,port elizabeth,-33.918,25.5701,12.16,71,20,18.01,ZA,1693004357
126,rincon de la victoria,36.7172,-4.2758,32.97,56,42,0.99,ES,1693004357
127,papatowai,-46.5619,169.4708,11.95,71,11,2.74,NZ,1693004357
128,vilyuchinsk,52.9306,158.4028,14.15,83,100,0.78,RU,1693004358
129,morazan,15.3167,-87.6,31.87,86,82,1.66,HN,1693004358
130,salinopolis,-0.6136,-47.3561,26.7,76,23,5.84,BR,1693004358
131,hastings,50.8552,0.5729,16.55,40,9,6.21,GB,1693004358
132,hobyo,5.3505,48.5268,24.95,88,5,10.92,SO,1693004358
133,tanumah,27.1,44.1333,32.23,13,2,3.43,SA,1693004359
134,kimberley,-28.7323,24.7623,6.83,53,0,3.09,ZA,1693004359
135,talnakh,69.4865,88.3972,11.23,88,91,0.79,RU,1693004359
136,meleuz,52.9667,55.9167,11.24,57,96,2.49,RU,1693004359
137,tangalle,6.024,80.7911,25.71,87,100,3.85,LK,1693004359
138,mugia,43.1041,-9.2179,16.62,78,10,5.24,ES,1693004359
139,saipan,15.1355,145.701,29.8,100,100,1.34,MP,1693004360
140,island harbour,50.724,-1.2758,16.63,92,97,0.89,GB,1693004360
141,port lincoln,-34.7333,135.8667,13.21,79,100,4.71,AU,1693004360
142,ribeira grande,38.5167,-28.7,22.22,88,40,3.58,PT,1693004360
143,naze,28.3667,129.4833,25.51,81,21,2.39,JP,1693004361
144,verkhnevilyuysk,63.4453,120.3167,16.06,69,64,1.78,RU,1693004361
145,preobrazheniye,42.9019,133.9064,21.9,93,78,3.31,RU,1693004361
146,vanimo,-2.6741,141.3028,26.81,87,67,1.56,PG,1693004361
147,kingston,17.997,-76.7936,31.53,85,75,4.63,JM,1693004361
148,salahonda,2.1019,-78.7217,27.06,81,68,3.06,CO,1693004362
149,chonchi,-42.6128,-73.8092,7.56,91,48,1.13,CL,1693004362
150,penon blanco,24.7897,-104.0369,28.76,29,7,7.99,MX,1693004362
151,hammerfest,70.6634,23.6821,7.25,93,20,3.09,NO,1693004362
152,taoudenni,22.6783,-3.9836,35.36,12,0,5.24,ML,1693004362
153,kavaratti,10.5669,72.642,28.09,73,99,3.34,IN,1693004362
154,kununurra,-15.7667,128.7333,22.99,28,0,3.6,AU,1693004363
155,hami,42.8,93.45,23.66,31,4,2.65,CN,1693004190
156,holualoa,19.6228,-155.9522,26.97,74,22,2.68,US,1693004363
157,villiers,-27.0303,28.6006,12.16,22,54,5.11,ZA,1693004363
158,egilsstadir,65.2653,-14.3948,10.95,76,0,2.57,IS,1693004364
159,nagqu,31.5,92.0,3.35,95,100,1.98,CN,1693004308
160,st. john's,47.5649,-52.7093,14.53,91,40,2.57,CA,1693004364
161,pontalina,-17.525,-49.4472,28.96,31,69,1.01,BR,1693004364
162,falmouth,50.1544,-5.0711,15.5,100,85,2.06,GB,1693004365
163,gadzhiyevo,69.2551,33.3362,8.69,80,100,4.23,RU,1693004365
164,ancud,-41.8697,-73.8203,6.12,74,34,3.34,CL,1693004365
165,punta arenas,-53.15,-70.9167,3.05,76,98,3.84,CL,1693004365
166,phon,15.816,102.5998,24.85,85,75,4.8,TH,1693004365
167,turpan,42.9333,89.1667,30.18,18,0,1.32,CN,1693004366
168,san patricio,28.017,-97.5169,36.4,51,3,6.67,US,1693004366
169,jeddah,21.5169,39.2192,33.92,62,0,2.06,SA,1693004179
170,hawaiian paradise park,19.5933,-154.9731,28.35,74,11,4.46,US,1693004366
171,laguna,38.421,-121.4238,35.75,34,0,4.63,US,1693004367
172,el haouaria,37.05,11.0144,28.01,69,0,3.82,TN,1693004367
173,jinghong,21.991,100.7341,22.59,100,100,0.67,CN,1693004367
174,kuusamo,65.9667,29.1833,10.02,93,0,1.03,FI,1693004367
175,ust-nera,64.5667,143.2,11.3,59,8,1.63,RU,1693004367
176,gaigeturi,33.4644,126.3183,25.03,78,40,2.57,KR,1693004367
177,vuokatti,64.146,28.2697,5.92,91,47,0.23,FI,1693004367
178,humahuaca,-23.2054,-65.3505,14.28,8,100,5.31,AR,1693004368
179,saint-philippe,-21.3585,55.7679,19.77,75,41,5.37,RE,1693004368
180,susuman,62.7833,148.1667,7.48,88,100,1.9,RU,1693004368
181,klyuchi,52.2667,79.1667,11.99,58,1,0.94,RU,1693004369
182,pass christian,30.3158,-89.2475,37.07,67,22,0.89,US,1693004369
183,grand falls-windsor,48.9332,-55.6649,15.21,69,5,0.82,CA,1693004369
184,kidal,18.4411,1.4078,32.5,37,97,7.42,ML,1693004369
185,owando,-0.4819,15.8999,23.17,90,100,1.29,CG,1693004369
186,mejit,10.2753,170.8646,28.21,71,96,5.53,MH,1693004370
187,kodinsk,58.6881,99.1844,14.2,81,5,1.58,RU,1693004370
188,segorbe,39.8138,-0.4521,26.09,72,18,2.07,ES,1693004370
189,nar'yan-mar,67.6713,53.087,5.79,81,100,5.84,RU,1693004370
190,phongsali,21.6833,102.1058,16.26,100,86,0.57,LA,1693004371
191,kangding,30.0513,101.9603,15.21,94,98,1.55,CN,1693004371
192,bubaque,11.2833,-15.8333,26.62,81,86,4.43,GW,1693004371
193,gornopravdinsk,60.05,69.9,5.75,99,60,2.38,RU,1693004371
194,akureyri,65.6835,-18.0878,14.96,63,0,0.0,IS,1693004371
195,three points,32.0767,-111.3137,40.55,18,0,5.14,US,1693004371
196,port blair,11.6667,92.75,27.02,89,75,3.6,IN,1693004371
197,aguas formosas,-17.0822,-40.9358,28.51,50,81,2.54,BR,1693004372
198,vorgashor,67.5833,63.95,4.17,97,100,4.49,RU,1693004139
199,okhotsk,59.3833,143.3,14.34,64,60,7.29,RU,1693004196
200,fuglafjordur,62.244,-6.814,11.26,83,84,5.25,FO,1693004373
201,bonny,4.4522,7.1681,25.43,90,40,3.75,NG,1693004373
202,chilmari,25.5559,89.6715,25.49,93,95,2.44,BD,1693004373
203,menongue,-14.6585,17.691,16.96,21,64,0.74,AO,1693004373
204,vorkuta,67.5,64.0,4.36,97,100,4.23,RU,1693004374
205,west helena,34.5507,-90.6418,38.82,29,36,3.71,US,1693004374
206,villa yapacani,-17.4,-63.8333,29.15,40,25,0.38,BO,1693004374
207,argo,37.6333,22.7333,27.66,53,0,1.94,GR,1693004374
208,kourou,5.1552,-52.6478,28.03,81,2,4.54,GF,1693004374
209,west island,-12.1568,96.8225,24.99,78,40,5.66,CC,1693004375
210,horta,38.5333,-28.6333,21.8,87,40,3.58,PT,1693004375
211,avarua,-21.2078,-159.775,26.03,69,21,5.66,CK,1693004375
212,nizhnesortymskiy,62.4397,71.7603,8.36,86,95,2.89,RU,1693004375
213,hailar,49.2,119.7,12.58,70,100,1.44,CN,1693004299
214,dudinka,69.4058,86.1778,11.46,89,100,3.03,RU,1693004376
215,altamira,-3.2033,-52.2064,26.18,66,33,1.08,BR,1693004376
216,tsiombe,-25.3,45.4833,21.61,66,0,2.91,MG,1693004376
217,moab,38.5733,-109.5498,32.01,35,11,0.86,US,1693004376
218,inongo,-1.95,18.2667,20.91,88,100,2.08,CD,1693004376
219,callao,-12.0667,-77.15,22.62,68,75,5.14,PE,1693004376
220,baiyin,36.5583,104.2081,15.44,61,100,0.99,CN,1693004377
221,srivardhan,18.0333,73.0167,25.87,88,84,3.39,IN,1693004377
222,aykhal,66.0,111.5,16.42,66,9,2.85,RU,1693004377
223,wuwei,37.9281,102.6414,14.95,70,99,0.62,CN,1693004205
224,longyearbyen,78.2186,15.6401,6.91,87,75,5.14,SJ,1693004377
225,totness,5.8833,-56.3167,25.49,90,52,1.47,SR,1693004377
226,mitu,1.1983,-70.1733,24.03,85,75,0.45,CO,1693004378
227,sechura,-5.5569,-80.8222,23.5,63,13,7.87,PE,1693004378
228,kavieng,-2.5744,150.7967,27.19,81,37,3.63,PG,1693004378
229,howrah,22.5892,88.3103,27.0,89,100,2.57,IN,1693004378
230,twon-brass,4.3151,6.2418,25.37,90,27,4.29,NG,1693004378
231,hegang,47.4,130.3667,15.82,99,100,1.12,CN,1693004261
232,arno,60.1167,18.6333,16.55,92,100,0.47,SE,1693004379
233,kon tum,14.35,108.0,21.51,99,82,0.51,VN,1693004366
234,college,64.8569,-147.8028,15.82,88,100,0.45,US,1693004379
235,new plymouth,-39.0667,174.0833,11.29,71,57,1.34,NZ,1693004379
236,al bawiti,28.3492,28.8659,27.6,46,0,3.73,EG,1693004325
237,katsuura,35.1333,140.3,28.03,77,0,3.2,JP,1693004379
238,aasiaat,68.7098,-52.8699,2.92,90,39,5.02,GL,1693004098
239,kyzyl-mazhalyk,51.1333,90.6,14.0,67,38,0.4,RU,1693004380
240,tomatlan,19.9333,-105.25,31.24,62,47,3.65,MX,1693004380
241,sovetskaya gavan',48.9723,140.2878,14.95,98,100,5.21,RU,1693004380
242,monchegorsk,67.9397,32.8739,7.91,85,96,1.79,RU,1693004380
243,mamuju,-2.6748,118.8885,25.36,86,7,1.79,ID,1693004380
244,baoying,33.2292,119.3092,23.08,88,100,2.29,CN,1693004216
245,cestos city,5.46,-9.5828,25.27,86,100,2.59,LR,1693004381
246,slutsk,53.0274,27.5597,16.9,73,95,2.49,BY,1693004381
247,paracuru,-3.41,-39.0306,27.28,77,2,5.38,BR,1693004381
248,cidreira,-30.1811,-50.2056,11.74,58,2,2.59,BR,1693004359
249,xicotencatl,23.0167,-98.8833,26.97,71,100,1.42,MX,1693004381
250,wynyard,-41.0,145.7167,8.52,67,89,2.35,AU,1693004155
251,ouesso,1.6136,16.0517,21.01,97,100,0.54,CG,1693004381
252,pyay,18.8167,95.2167,24.32,95,100,2.31,MM,1693004382
253,manaquiri,-3.3167,-60.35,34.27,34,18,0.51,BR,1693004382
254,acajutla,13.5928,-89.8275,29.15,72,72,2.85,SV,1693004383
255,ringkobing,56.0901,8.244,11.68,71,65,1.93,DK,1693004383
256,el nido,11.1858,119.3956,27.91,80,100,4.89,PH,1693004383
257,douglas,41.3,-96.167,31.99,72,0,4.12,US,1693004383
258,maloye ganyushkino,46.6,49.2667,20.02,53,87,1.89,KZ,1693004384
259,juba,4.8517,31.5825,24.22,62,72,1.62,SS,1693004384
260,chernyshevskiy,63.0128,112.4714,15.52,69,69,0.73,RU,1693004384
261,erenhot,43.6475,111.9767,16.87,49,60,3.88,CN,1693004326
262,namibe,-15.1961,12.1522,17.62,85,31,4.2,AO,1693004384
263,minas de marcona,-15.2119,-75.1103,13.64,78,6,6.63,PE,1693004384
264,saldanha,-33.0117,17.9442,10.03,54,89,9.0,ZA,1693004384
265,haenam,34.5711,126.5989,23.34,81,15,2.84,KR,1693004385
266,teknaf,20.8624,92.3058,25.73,92,100,3.46,BD,1693004385
267,itoman,26.1247,127.6694,28.01,83,75,3.09,JP,1693004219
268,nampula,-15.1165,39.2666,19.97,88,0,4.63,MZ,1693004385
269,kathleen,28.1209,-82.0231,34.74,62,40,2.57,US,1693004385
270,slyudyanka,51.6594,103.7061,13.25,86,18,1.51,RU,1693004385
271,acapulco de juarez,16.8634,-99.8901,28.51,78,79,2.4,MX,1693004386
272,puerto lempira,15.2667,-83.7667,32.08,66,40,2.57,HN,1693004386
273,saiha,22.4833,92.9667,21.86,99,100,1.3,IN,1693004386
274,cudillero,43.5622,-6.1459,17.59,98,75,3.09,ES,1693004386
275,anadyr,64.75,177.4833,9.28,75,40,2.68,RU,1693004386
276,polyarnyy,69.1989,33.4478,8.92,80,100,4.2,RU,1693004387
277,veracruz,19.3333,-96.6667,25.0,88,35,1.71,MX,1693004387
278,paita,-5.0892,-81.1144,20.88,80,4,7.54,PE,1693004387
279,rondonopolis,-16.4708,-54.6356,33.92,21,61,1.52,BR,1693004387
280,tindouf,27.6711,-8.1474,38.25,10,75,7.2,DZ,1693004387
281,zeya,53.75,127.2667,13.92,65,100,2.47,RU,1693004388
282,la passe,45.5549,-0.8967,17.77,74,1,3.37,FR,1693004388
283,periyanegamam,10.7333,77.1,24.28,91,79,5.6,IN,1693004388
284,kachug,53.9606,105.8817,12.38,81,55,1.07,RU,1693004388
285,lodja,-3.4833,23.4333,20.82,95,100,1.11,CD,1693004388
286,san luis,-33.295,-66.3356,7.66,74,18,5.04,AR,1693004388
287,kandyagash,49.4744,57.4233,15.87,53,99,3.47,KZ,1693004389
288,giyani,-23.3025,30.7187,21.06,40,21,1.02,ZA,1693004389
289,maluso,6.543,121.8753,24.05,78,87,1.54,PH,1693004389
290,mount isa,-20.7333,139.5,17.87,25,0,4.63,AU,1693004389
291,bolotnoye,55.6717,84.3981,10.7,96,96,3.8,RU,1693004389
292,constantia,44.1833,28.65,22.61,80,1,3.32,RO,1693004390
293,codrington,-38.2667,141.9667,10.01,71,90,3.2,AU,1693004390
294,bardai,11.65,7.2333,22.31,83,99,3.36,NG,1693004390
295,lamar,33.6668,-95.5836,40.99,30,58,3.26,US,1693004390
296,raja,8.4596,25.678,20.83,97,100,1.53,SS,1693004391
297,daru,-9.0763,143.2092,24.93,81,78,7.48,PG,1693004391
298,alaghsas,17.0187,8.0168,32.04,38,46,4.35,NE,1693004391
299,orsa,54.5153,30.4053,15.76,72,99,2.5,BY,1693004391
300,iskateley,67.6803,53.1512,5.75,82,100,5.81,RU,1693004391
301,aginskoye,51.1,114.53,14.57,53,6,0.66,RU,1693004391
302,turaif,31.6725,38.6637,27.14,36,0,4.12,SA,1693004392
303,linxia chengguanzhen,35.6003,103.2064,12.85,82,100,0.89,CN,1693004384
304,eyl,7.9803,49.8164,25.3,81,12,10.52,SO,1693004392
305,olyokminsk,60.3736,120.4264,14.03,57,12,0.82,RU,1693004392
306,la'ie,21.6477,-157.9253,29.14,67,9,2.68,US,1693004392
307,soe,-9.8607,124.284,18.82,67,30,1.85,ID,1693004392
308,noumea,-22.2763,166.4572,22.22,99,5,5.43,NC,1693004371
309,sarikamis,40.3381,42.5731,9.39,92,7,2.51,TR,1693004393
310,fort bragg,35.139,-79.006,33.84,60,36,1.34,US,1693004393
311,haiku-pauwela,20.9219,-156.3051,27.25,69,8,7.51,US,1693004393
312,mahebourg,-20.4081,57.7,23.47,78,40,5.66,MU,1693004393
313,pisco,-13.7,-76.2167,21.03,68,0,5.66,PE,1693004394
314,fort st. john,56.2499,-120.8529,25.94,34,0,4.63,CA,1693004394
315,wajir,1.7471,40.0573,24.99,59,26,8.32,KE,1693004394
316,taulaga,-11.0553,-171.0883,27.96,79,96,6.07,AS,1693004394
317,chavusy,53.8075,30.9712,14.96,81,99,2.95,BY,1693004395
318,el granada,37.5027,-122.4694,28.67,70,100,3.6,US,1693004395
319,havran,39.5583,27.0983,22.16,63,9,3.18,TR,1693004395
320,toliara,-23.35,43.6667,21.64,51,0,2.46,MG,1693004395
321,turtas,58.9417,69.1325,7.76,95,94,2.23,RU,1693004395
322,agadez,19.75,10.25,31.38,36,94,4.53,NE,1693004395
323,nevesinje,43.2586,18.1133,18.48,46,0,2.75,BA,1693004396
324,raduzhny,62.0961,77.475,9.65,78,95,2.69,RU,1693004396
325,hasaki,35.7333,140.8333,29.22,75,1,2.15,JP,1693004200
326,languyan,5.2618,120.0807,26.64,80,84,1.16,PH,1693004396
327,saudarkrokur,65.7461,-19.6394,16.07,56,100,6.9,IS,1693004396
328,parabel',58.6978,81.4825,7.04,93,14,3.29,RU,1693004396
329,dom pedro,-4.4833,-44.45,30.68,41,90,2.24,BR,1693004397
330,brisas de zicatela,15.8369,-97.0419,28.2,79,100,3.95,MX,1693004397
331,segre,47.6833,-0.8667,15.08,92,1,3.33,FR,1693004397
332,ladybrand,-29.1945,27.4574,4.57,59,0,2.28,ZA,1693004397
333,riachao do jacuipe,-11.8069,-39.3856,24.68,60,2,4.08,BR,1693004397
334,madang,-5.2246,145.7966,27.05,82,100,1.38,PG,1693004398
335,lower hutt,-41.2167,174.9167,12.69,81,75,5.14,NZ,1693004398
336,busselton,-33.65,115.3333,11.87,84,25,1.05,AU,1693004353
337,extrema,-22.8547,-46.3183,16.3,91,70,2.33,BR,1693004399
338,yatagan,37.3403,28.1428,20.51,50,46,0.47,TR,1693004399
339,villa de cos,23.2833,-102.35,26.34,29,78,5.92,MX,1693004399
340,alofi,-19.0595,-169.9187,27.94,83,98,4.12,NU,1693004399
341,igarka,67.4667,86.5833,8.86,97,100,6.47,RU,1693004399
342,port mathurin,-19.6833,63.4167,22.53,70,77,11.67,MU,1693004400
343,timbuktu,16.7735,-3.0074,37.29,26,44,5.71,ML,1693004400
344,ridgecrest,35.6225,-117.6709,37.23,10,0,1.79,US,1693004401
345,saint-paul,-21.0096,55.2707,22.05,85,49,0.45,RE,1693004402
346,crane,31.3974,-102.3501,36.08,21,3,7.02,US,1693004403
347,aras-asan,8.8908,126.3033,26.35,84,100,2.36,PH,1693004404
348,fort mcmurray,56.7268,-111.381,23.73,40,0,5.14,CA,1693004405
349,ewo,-0.8725,14.8206,23.81,84,84,1.75,CG,1693004405
350,geraldton,-28.7667,114.6,8.23,93,2,4.12,AU,1693004109
351,xacmaz,41.4635,48.806,21.42,75,99,3.79,AZ,1693004406
352,nouadhibou,20.931,-17.0347,23.8,83,98,6.57,MR,1693004406
353,shakhtinsk,49.71,72.5872,12.61,56,30,1.64,KZ,1693004407
354,manggar,-2.8833,108.2667,26.25,84,97,4.33,ID,1693004407
355,'ayn al 'arab,36.8932,38.3651,27.14,34,0,7.41,SY,1693004408
356,tayshet,55.9342,98.0044,12.62,91,0,1.68,RU,1693004408
357,fereydun kenar,36.6864,52.5225,27.3,73,7,8.46,IR,1693004410
358,nizhneudinsk,54.9076,99.0276,13.24,89,3,1.36,RU,1693004410
359,embi,48.8264,58.1442,17.23,51,93,3.39,KZ,1693004411
360,sitka,57.0531,-135.33,19.33,69,64,2.79,US,1693004411
361,papao,-17.75,-149.55,29.82,83,36,7.77,PF,1693004412
362,malonne,50.4383,4.7967,15.04,85,57,3.02,BE,1693004412
363,coruripe,-10.1256,-36.1756,22.76,84,12,4.74,BR,1693004413
364,bodaybo,57.8506,114.1933,15.55,81,30,0.78,RU,1693004413
365,viamao,-30.0811,-51.0233,13.55,54,0,1.54,BR,1693004359
366,ola,59.5833,151.2833,11.19,89,100,5.27,RU,1693004414
367,magadan,59.5667,150.8,10.85,90,100,3.41,RU,1693004414
368,bistrita,47.1332,24.5001,19.38,58,74,1.76,RO,1693004415
369,brody,50.0879,25.1503,19.39,64,51,3.29,UA,1693004415
370,galveston,29.3669,-94.9669,37.27,61,0,1.34,US,1693004135
371,kimbe,-5.5502,150.1429,26.94,78,99,3.67,PG,1693004417
372,havelock,34.8791,-76.9013,28.33,75,55,1.79,US,1693004417
373,labrador city,52.9463,-66.9114,11.45,98,100,1.64,CA,1693004417
374,san jose de las matas,19.3391,-70.9382,26.94,88,55,1.57,DO,1693004418
375,simpang,-1.2667,104.0833,23.04,99,56,1.22,ID,1693004418
376,enewetak,11.3474,162.3373,28.1,79,93,6.3,MH,1693004418
377,i-n-salah,27.1935,2.4607,34.59,12,17,10.07,DZ,1693004418
378,gaiman,-43.2897,-65.4929,8.49,37,39,2.76,AR,1693004419
379,tubmanburg,6.8708,-10.8172,23.54,98,100,0.98,LR,1693004419
380,hadibu,12.65,54.0333,26.51,81,37,7.25,YE,1693004419
381,boa vista,2.8197,-60.6733,31.99,51,0,2.06,BR,1693004419
382,mili,6.0815,171.735,28.15,76,50,5.04,MH,1693004419
383,katima mulilo,-17.5,24.2667,20.04,24,2,2.53,NA,1693004419
384,bannu,32.9854,70.6027,29.0,49,9,1.42,PK,1693004420
385,timberlake,37.3207,-79.2575,30.48,69,61,1.59,US,1693004420
386,san antonio de pale,-1.4014,5.6325,23.45,91,81,3.8,GQ,1693004420
387,ust'-ilimsk,58.0006,102.6619,14.54,79,17,1.61,RU,1693004421
388,george town,5.4112,100.3354,26.12,93,20,1.03,MY,1693004258
389,tari,12.4086,4.4914,25.46,84,100,3.49,NG,1693004421
390,kapuskasing,49.4169,-82.4331,12.05,94,100,4.12,CA,1693004421
391,islamorada,24.9243,-80.6278,30.56,81,5,4.02,US,1693004422
392,tripoli,32.8752,13.1875,26.86,68,0,2.96,LY,1693004422
393,wenling,28.3669,121.36,26.2,89,52,1.94,CN,1693004422
394,nova sintra,14.8667,-24.7167,24.27,73,100,0.87,CV,1693004422
395,coyhaique,-45.5752,-72.0662,-0.12,97,71,2.25,CL,1693004422
396,magistral'nyy,56.1725,107.4458,14.01,86,16,0.54,RU,1693004422
397,kone,-21.0595,164.8658,23.41,53,8,3.41,NC,1693004423
398,danville,36.586,-79.395,31.36,65,90,1.79,US,1693004192
399,ayacucho,-13.1583,-74.2239,19.32,52,41,3.59,PE,1693004423
400,kapa'a,22.0752,-159.319,28.94,65,5,4.02,US,1693004423
401,tazovsky,67.4667,78.7,8.3,77,99,2.59,RU,1693004424
402,ormara,25.2088,64.6357,26.43,84,100,5.93,PK,1693004424
403,lepsy,46.235,78.9456,23.0,49,94,3.46,KZ,1693004424
404,altayskoye,51.9533,85.3325,15.99,98,100,2.98,RU,1693004424
405,nyurba,63.2842,118.3319,16.03,70,67,1.64,RU,1693004424
406,lazaro cardenas,17.9583,-102.2,28.51,76,82,2.53,MX,1693004424
407,rongelap,11.1635,166.8941,28.0,76,100,5.39,MH,1693004425
408,saint-pierre,-21.3393,55.4781,19.82,73,0,1.54,RE,1693004425
409,revda,56.801,59.9303,5.94,96,83,2.74,RU,1693004425
410,hassi messaoud,31.6804,6.0729,32.32,20,0,4.65,DZ,1693004425
411,frolovo,49.7713,43.6622,10.77,69,36,3.97,RU,1693004425
412,mutoko,-17.397,32.2268,15.48,46,0,1.5,ZW,1693004426
413,krasnyy chikoy,50.3643,108.7512,10.75,89,28,1.21,RU,1693004426
414,sakete,6.7362,2.6587,23.71,95,70,2.75,BJ,1693004426
415,pariaman,-0.619,100.12,24.48,89,57,1.36,ID,1693004426
416,dali,25.7,100.1833,17.67,96,96,2.0,CN,1693004427
417,princeville,45.7668,-61.2985,19.74,88,100,0.45,CA,1693004427
418,coahuayana de hidalgo,18.7,-103.6583,29.98,72,50,2.88,MX,1693004427
419,urambo,-5.0667,32.05,22.33,45,26,2.17,TZ,1693004427
420,pochinok,54.4068,32.4407,14.61,90,100,2.82,RU,1693004428
421,trincomalee,8.5711,81.2335,26.89,78,91,6.22,LK,1693004428
422,amursk,50.2261,136.8994,14.06,95,100,8.66,RU,1693004428
423,yarmouth,41.7057,-70.2286,21.03,95,100,6.69,US,1693004429
424,asilah,35.465,-6.0348,29.98,51,8,4.24,MA,1693004429
425,gorgan,36.8387,54.4348,25.62,82,6,2.34,IR,1693004429
426,tofol,5.3248,163.0078,30.88,74,75,4.63,FM,1693004429
427,mantua,45.1667,10.7833,27.42,81,0,0.89,IT,1693004429
428,shengli,37.4564,118.4856,23.93,74,99,1.32,CN,1693004150
429,waingapu,-9.6567,120.2641,23.47,80,53,3.39,ID,1693004429
430,asau,46.4333,26.4,19.6,58,6,2.29,RO,1693004430
431,grand baie,-20.0182,57.5802,23.58,69,12,2.24,MU,1693004430
432,coquimbo,-29.9533,-71.3436,14.35,75,13,3.61,CL,1693004430
433,as sulayyil,20.4607,45.5779,33.2,11,70,2.5,SA,1693004430
434,olonkinbyen,70.9221,-8.7187,6.55,91,0,7.86,SJ,1693004431
435,consolacion del sur,22.5047,-83.5136,24.44,95,100,2.93,CU,1693004431
436,n'dalatando,-9.2978,14.9116,19.29,83,24,2.36,AO,1693004431
437,rizokarpaso,35.6,34.375,27.18,77,4,3.74,CY,1693004432
438,rawson,-43.3002,-65.1023,8.8,41,33,3.68,AR,1693004432
439,san borja,-14.8167,-66.85,31.31,35,15,2.21,BO,1693004432
440,guiuan,11.0333,125.7247,28.81,77,100,5.44,PH,1693004432
441,arraial do cabo,-22.9661,-42.0278,21.22,92,73,3.46,BR,1693004433
442,sinabang,2.4803,96.3801,23.76,92,100,1.83,ID,1693004433
443,sao jose da coroa grande,-8.8978,-35.1478,24.09,76,97,3.86,BR,1693004433
444,gilgit,35.9221,74.3087,21.86,69,90,0.54,PK,1693004433
445,fisterra,42.9049,-9.2629,16.53,79,14,5.39,ES,1693004433
446,santyoku,37.4406,129.1708,24.74,77,1,1.42,KR,1693004434
447,non sang,16.8687,102.5664,24.35,95,100,1.26,TH,1693004434
448,port macquarie,-31.4333,152.9167,14.94,70,31,0.63,AU,1693004434
449,champerico,14.3,-91.9167,28.9,75,32,3.81,GT,1693004435
450,tobias barreto,-11.1839,-37.9983,20.1,93,0,4.29,BR,1693004435
451,tura,25.5198,90.2201,23.25,99,100,1.66,IN,1693004435
452,boden,65.8252,21.6886,10.0,95,46,1.02,SE,1693004435
453,kenai,60.5544,-151.2583,14.05,89,100,4.63,US,1693004436
454,itamaraca,-7.7478,-34.8256,23.76,80,10,3.24,BR,1693004436
455,acarau,-2.8856,-40.12,25.51,83,1,7.34,BR,1693004437
456,manicore,-5.8092,-61.3003,30.17,44,60,1.11,BR,1693004437
457,palikir - national government center,6.9248,158.1611,27.47,89,75,2.06,FM,1693004437
458,sona,45.4388,10.8255,27.75,72,0,1.03,IT,1693004438
459,tucuma,-0.1833,-50.05,26.73,75,3,4.85,BR,1693004438
460,berezovyy,51.6667,135.7,12.68,93,100,2.11,RU,1693004438
461,dakhla,23.6848,-15.958,22.36,83,90,5.81,EH,1693004438
462,sinop,41.7711,34.8709,17.83,54,0,2.54,TR,1693004439
463,salinas,36.6777,-121.6555,29.76,79,0,6.17,US,1693004439
464,formosa,-26.1775,-58.1781,18.87,41,77,2.24,AR,1693004439
465,north bend,43.4065,-124.2243,24.02,75,29,3.37,US,1693004440
466,morada nova,-5.1067,-38.3725,24.84,72,4,4.14,BR,1693004440
467,doaba,33.4244,70.7364,24.26,61,13,1.96,PK,1693004441
468,pechora,65.1472,57.2244,7.05,90,100,3.75,RU,1693004441
469,kalajoki,64.25,23.95,14.95,95,74,2.76,FI,1693004441
470,mirabela,-16.2628,-44.1644,24.29,48,84,1.13,BR,1693004441
471,lavelanet,42.9313,1.8466,19.77,87,87,0.86,FR,1693004441
472,jakobstad,63.6749,22.7026,14.96,91,42,1.34,FI,1693004442
473,kirensk,57.7853,108.1119,14.74,87,76,0.5,RU,1693004210
474,myeik,12.4333,98.6,25.9,86,100,1.94,MM,1693004442
475,berezovo,63.9381,65.0419,7.74,93,100,2.91,RU,1693004443
476,mahajanga,-15.7167,46.3167,23.32,58,22,3.91,MG,1693004443
477,kingscliff,-28.2667,153.5667,19.97,63,75,4.63,AU,1693004443
478,parnamirim,-5.9156,-35.2628,24.19,86,3,2.61,BR,1693004444
479,ad dabbah,18.05,30.95,38.9,10,93,8.26,SD,1693004444
480,broken hill,-31.95,141.4333,16.99,30,4,3.16,AU,1693004346
481,mancio lima,-7.6142,-72.8958,30.49,46,49,2.49,BR,1693004444
482,ballina,-28.8667,153.5667,14.88,71,41,3.97,AU,1693004204
483,wenchang,30.904,118.4887,25.53,88,100,3.12,CN,1693004266
484,birjand,32.8663,59.2211,19.92,31,0,4.07,IR,1693004445
485,san pedro,14.35,121.0167,28.53,89,100,0.89,PH,1693004445
486,ad-damazin,11.7891,34.3592,22.6,90,100,4.0,SD,1693004445
487,dryden,49.7833,-92.7503,17.16,82,75,5.66,CA,1693004445
488,belyy yar,53.6039,91.3903,18.94,72,0,4.0,RU,1693004446
489,rabo de peixe,37.8,-25.5833,21.73,83,75,3.09,PT,1693004446
490,macapa,0.0389,-51.0664,27.85,69,1,6.59,BR,1693004446
491,margate,51.3813,1.3862,15.39,80,46,1.79,GB,1693004446
492,antofagasta,-23.65,-70.4,15.62,85,29,3.22,CL,1693004446
493,barra da estiva,-13.6261,-41.3269,23.51,50,70,2.93,BR,1693004446
494,malchin,53.7333,12.7833,19.81,98,100,2.06,DE,1693004447
495,remire-montjoly,4.9167,-52.2667,28.02,78,0,2.06,GF,1693004447
496,mikun',62.3547,50.0771,7.99,97,100,2.67,RU,1693004447
497,balkanabat,39.5108,54.3671,29.61,36,58,0.48,TM,1693004448
498,tumaco,1.7986,-78.8156,26.58,84,83,2.42,CO,1693004448
499,yeppoon,-23.1333,150.7333,19.88,75,25,6.62,AU,1693004448
500,san martin,-33.081,-68.4681,11.07,51,98,4.7,AR,1693004449
501,arkhangel'sk,64.5401,40.5433,9.12,81,100,2.12,RU,1693004163
502,matoury,4.8483,-52.3317,27.98,78,0,2.06,GF,1693004449
503,chibougamau,49.9168,-74.3659,15.11,92,100,1.4,CA,1693004449
504,tralee,52.2704,-9.7026,13.3,92,86,4.89,IE,1693004450
505,millville,39.4021,-75.0393,29.99,91,35,5.2,US,1693004450
506,haldibari,26.3333,88.7667,24.49,95,100,2.65,IN,1693004450
507,tozkhurmato,34.8905,44.6299,31.05,20,0,1.71,IQ,1693004450
508,bay roberts,47.5999,-53.2648,14.81,89,16,0.45,CA,1693004451
509,kedrovyy,56.1667,91.8167,13.26,90,100,1.72,RU,1693004451
510,al burayqah,30.4062,19.5739,26.51,78,3,6.95,LY,1693004451
511,balabac,7.9868,117.0645,27.84,78,100,2.51,PH,1693004451
512,kawm umbu,24.4767,32.9463,34.12,21,0,8.17,EG,1693004452
513,princeton,25.5384,-80.4089,31.11,74,0,5.14,US,1693004452
514,peniche,39.3558,-9.3811,20.72,83,98,7.26,PT,1693004452
515,eagle,43.6954,-116.354,33.07,35,0,2.57,US,1693004453
516,strezhevoy,60.7333,77.5889,7.04,91,15,2.89,RU,1693004453
517,bandarbeyla,9.4942,50.8122,25.42,82,50,12.67,SO,1693004453
518,obidos,-1.9175,-55.5181,28.86,49,17,0.45,BR,1693004454
519,kalianget,-7.05,113.9333,25.57,77,6,4.56,ID,1693004454
520,egersund,58.4513,5.9997,15.05,93,100,0.59,NO,1693004454
521,novyy urgal,51.0736,132.5642,15.3,92,91,1.31,RU,1693004454
522,coleraine,55.1333,-6.6667,13.12,90,98,8.11,GB,1693004455
523,bandrele,-12.9067,45.1914,24.86,78,0,4.12,YT,1693004455
524,calama,-22.4667,-68.9333,13.95,6,83,3.0,CL,1693004455
525,nuuk,64.1835,-51.7216,8.34,81,100,14.31,GL,1693004455
526,moree,-29.4667,149.85,16.91,52,81,3.99,AU,1693004251
527,lahij,13.1667,44.5833,32.29,38,72,3.18,YE,1693004451
528,farafangana,-22.8167,47.8333,20.47,83,27,2.64,MG,1693004456
529,rundu,-17.9333,19.7667,19.94,19,6,1.9,NA,1693004457
530,durgapur,23.4833,87.3167,26.09,86,100,3.65,IN,1693004457
531,walvis bay,-22.9575,14.5053,11.72,82,58,5.0,NA,1693004457
532,zinjibar,13.1287,45.3807,33.98,49,47,2.57,YE,1693004457
533,sao tome,0.3365,6.7273,25.21,88,85,3.31,ST,1693004457
534,port lavaca,28.615,-96.6261,37.39,60,0,7.2,US,1693004458
535,milford haven,51.7128,-5.0341,17.01,93,55,5.17,GB,1693004458
536,suva,-18.1416,178.4415,24.16,67,75,1.46,FJ,1693004458
537,vallenar,-28.5708,-70.7581,18.61,30,8,0.91,CL,1693004458
538,neelankarai,12.9455,80.2575,28.03,89,40,4.12,IN,1693004458
539,darhan,49.4867,105.9228,13.61,89,69,4.04,MN,1693004459
540,kalmunai,7.4167,81.8167,26.35,79,90,3.58,LK,1693004459
541,saint-louis,16.3333,-15.0,34.0,45,74,2.92,SN,1693004419
542,batang berjuntai,3.3833,101.4167,25.25,94,78,1.2,MY,1693004459
543,xining,36.6167,101.7667,12.28,77,100,0.29,CN,1693004460
544,dhidhdhoo,6.8833,73.1,27.75,72,82,1.45,MV,1693004460
545,masaya sur,16.497,121.7456,24.4,94,100,0.43,PH,1693004460
546,sao sebastiao do paraiso,-20.9169,-46.9914,23.51,38,59,1.85,BR,1693004461
547,andkhoy,36.9529,65.1238,24.93,30,0,2.15,AF,1693004461
548,mao,39.8885,4.2658,25.31,94,0,1.03,ES,1693004461
549,kirklareli,41.7351,27.2252,21.67,63,0,2.29,TR,1693004461
550,vodnyy,63.5046,53.4095,7.79,95,100,2.73,RU,1693004461
551,malango,-2.9627,119.9001,19.29,95,9,0.48,ID,1693004462
552,mersa matruh,31.3525,27.2453,26.78,72,0,3.26,EG,1693004462
553,kenora,49.8167,-94.4337,17.54,82,75,4.12,CA,1693004463
554,naberera,-4.2,36.9333,14.36,89,7,2.87,TZ,1693004463
555,laghouat,33.8,2.8651,29.43,19,16,1.54,DZ,1693004463
556,saint-joseph,-21.3667,55.6167,19.21,75,39,4.82,RE,1693004463
557,ressano garcia,-25.442,31.9913,25.95,31,82,5.94,MZ,1693004464
558,sur,22.5667,59.5289,30.96,57,100,5.02,OM,1693004464
